[{"id":"1564980170663","dance":"Salsa","country":"Germany","location":"Waiblingen","date":"ned,-ef-un","posterURL":"img/2019-08-05T04:42:50.352Z-C5632D37-077C-485F-A88B-BEADABE23F28.jpeg","link":"https://m.facebook.com/events/2373560812886477","comments":"","createdFromLatitude":49.401828903793344,"createdFromLongitude":8.669349940922784,"eventLatitude":48.83241,"eventLongitude":9.31641,"distance":11,"reportedBecause":"Formatproblem","whatsAppLink":"https://chat.whatsapp.com/KgLeVDnOQJB8sfW6AF6DLo","telegramLink":"","supporter":""},{"id":"1566129832002","dance":"Salsa","country":"Germany","location":"Köln","date":"ned,-ef-un","posterURL":"img/2019-08-18T12:03:51.805Z-65217390_2402057313216935_8916786400704069632_n.jpg","link":"https://m.facebook.com/events/370808293766684?acontext=%7B\"ref\"%3A\"3\"%2C\"action_history\"%3A\"null\"%7D&aref=3","title":"Salsa im Park ","comments":"","createdFromLatitude":0,"createdFromLongitude":0,"eventLatitude":50.93333,"eventLongitude":6.95,"distance":277,"reportedBecause":"Formatproblem","whatsAppLink":"https://dance-planner.org/?chat=1gMu","telegramLink":"","supporter":"Jasmin"},{"id":"1566130746013","dance":"Salsa, Bachata, Merengue","country":"Germany","location":"Köln","date":"ned,-ef-un","posterURL":"img/2019-08-18T12:19:05.811Z-67543532_467446837429622_2006363636972388352_o.jpg","link":"https://m.facebook.com/events/2553790758004471?acontext=%7B\"ref\"%3A\"3\"%2C\"action_history\"%3A\"null\"%7D&aref=3","title":"Barrio Latino - Summer Picnic Edition ","comments":"","createdFromLatitude":0,"createdFromLongitude":0,"eventLatitude":50.93333,"eventLongitude":6.95,"distance":277,"reportedBecause":"Formatproblem","whatsAppLink":"https://dance-planner.org/?chat=1gMu","telegramLink":"","supporter":"Jasmin"},{"id":"1566148803494","dance":"Bachata ","country":"Germany","location":"Freiburg","date":"ned,-ef-un","posterURL":"img/2019-08-18T17:20:03.202Z-FB_IMG_1566148717715.jpg","link":"https://www.facebook.com/events/490705995036085/?ti=cl","title":"I love Bachata Sensual Night mit Workshop ","comments":"","createdFromLatitude":0,"createdFromLongitude":0,"eventLatitude":47.9959,"eventLongitude":7.85222,"distance":140,"reportedBecause":"Formatproblem","whatsAppLink":"https://dance-planner.org/?chat=1gMu","telegramLink":"","supporter":"Jasmin"},{"id":"1566294810208","dance":"Kizomba ","country":"Germany","location":"Würzburg","date":"ned,-ef-un","posterURL":"img/2019-08-20T09:53:29.954Z-FB_IMG_1566294738761.jpg","link":"https://www.facebook.com/events/325546081671713/?event_time_id=361409108085410&ti=cl","title":"Kizomba Friday im La Bamba","comments":"","createdFromLatitude":0,"createdFromLongitude":0,"eventLatitude":49.78778,"eventLongitude":9.93611,"distance":113,"reportedBecause":"Formatproblem","whatsAppLink":"https://dance-planner.org/?chat=1gMu","telegramLink":"","supporter":"Jasmin"},{"id":"1566733892804","dance":"Bachata ","country":"Germany","location":"Siegen","date":"ned,-ef-un","posterURL":"img/2019-08-25T11:51:32.542Z-FB_IMG_1566733827671.jpg","link":"https://www.facebook.com/events/328120848116442/?ti=cl","title":"Neue Bachata moderna Tanzkurse","comments":"","createdFromLatitude":0,"createdFromLongitude":0,"eventLatitude":50.87482,"eventLongitude":8.02431,"distance":235,"reportedBecause":"Formatproblem","whatsAppLink":"https://dance-planner.org/?chat=1gMu","telegramLink":"","supporter":"Jasmin"},{"id":"1566895892782","dance":"Tango argentino","country":"Germany","location":"Heidelberg","date":"ned,-ef-un","posterURL":"img/2019-08-27T08:51:32.503Z-herbstmilonga_2019a.jpg","link":"","title":"Herbst-Milonga des TSC Couronne Heidelberg","comments":"","createdFromLatitude":49.6837,"createdFromLongitude":8.6184,"eventLatitude":49.40768,"eventLongitude":8.69079,"distance":66,"reportedBecause":"Formatproblem","whatsAppLink":"","telegramLink":"","supporter":"Sonstiges"},{"id":"1571497906456","dance":"Tango","country":"North Macedonia","location":"Skopje","date":"2019-10-25;2019-10-26;2019-10-27","posterURL":"img/2019-10-19T15:11:46.253Z-Maratangon vol.7 Skopje Tango Marathon 25-27 October 2019.jpeg","link":"https://www.facebook.com/events/2326138234373101","title":"Maratangon vol.7 Skopje Tango Marathon 25-27 October 2019","comments":"","createdFromLatitude":0,"createdFromLongitude":0,"eventLatitude":41.99646,"eventLongitude":21.43141,"distance":0,"reportedBecause":"Formatproblem","whatsAppLink":"","telegramLink":"","supporter":"quickCreateCorrected by Julia Fr."},{"id":"1572210173082","dance":"Salsa-  Cuba Vacation","country":"Cuba","location":"Havana","date":"2020-04-08-2020-04-21","posterURL":"img/2019-10-27T21:02:52.768Z-Cuba Tour 2020 Baila en Cuba.jpeg","link":"https://www.facebook.com/events/1158616311016167","title":"Cuba Tour 2020 Baila en Cuba","comments":"","createdFromLatitude":0,"createdFromLongitude":0,"eventLatitude":23.13302,"eventLongitude":-82.38304,"distance":0,"reportedBecause":"Formatproblem","whatsAppLink":"","telegramLink":"","supporter":"quickCreateCorrected by Jenny"},{"id":"1572210304015","dance":"Piligram Festival","country":"Germany","location":"Mannheim","date":"2020-05-222020-05-23","posterURL":"img/2019-10-27T21:05:03.883Z-Piligrim Festival 2020.jpeg","link":"https://www.facebook.com/events/606696749853084/","title":"Piligrim Festival 2020","comments":"","createdFromLatitude":0,"createdFromLongitude":0,"eventLatitude":49.49671,"eventLongitude":8.47955,"distance":0,"reportedBecause":"Formatproblem","whatsAppLink":"","telegramLink":"","supporter":"quickCreateCorrected by Jenny"}]